{
"type": "FeatureCollection",
"name": "us_cities",
"crs": { "type": "name", "properties": { "name": "urn:ogc:def:crs:OGC:1.3:CRS84" } },
"features": [
{ "type": "Feature", "properties": { "name": "Charleston", "STATE": "WV", "NAME_2": "West Virginia", "waterQuality": "50" }, "geometry": { "type": "Point", "coordinates": [ -81.631492614746094, 38.348720550537109 ] } },
{ "type": "Feature", "properties": { "name": "Morgantown", "STATE": "WV", "NAME_2": "West Virginia", "waterQuality": "25" }, "geometry": { "type": "Point", "coordinates": [ -79.950386047363281, 39.631317138671875 ] } },
{ "type": "Feature", "properties": { "name": "Wheeling", "STATE": "WV", "NAME_2": "West Virginia", "waterQuality": "25" }, "geometry": { "type": "Point", "coordinates": [ -80.719268798828125, 40.069915771484375 ] } },
{ "type": "Feature", "properties": { "name": "Huntington", "STATE": "WV", "NAME_2": "West Virginia", "waterQuality": "75" }, "geometry": { "type": "Point", "coordinates": [ -82.446205139160156, 38.418136596679688 ] } },
{ "type": "Feature", "properties": { "name": "Aurora", "STATE": "IL", "NAME_2": "Illinois", "waterQuality": "69" }, "geometry": { "type": "Point", "coordinates": [ -88.320487976074219, 41.760700225830078 ] } },
{ "type": "Feature", "properties": { "name": "Belleville", "STATE": "IL", "NAME_2": "Illinois", "waterQuality": "80" }, "geometry": { "type": "Point", "coordinates": [ -89.984382629394531, 38.520027160644531 ] } },
{ "type": "Feature", "properties": { "name": "Bloomington", "STATE": "IL", "NAME_2": "Illinois", "waterQuality": "67" }, "geometry": { "type": "Point", "coordinates": [ -88.993759155273438, 40.484180450439453 ] } },
{ "type": "Feature", "properties": { "name": "Champaign", "STATE": "IL", "NAME_2": "Illinois", "waterQuality": "67" }, "geometry": { "type": "Point", "coordinates": [ -88.243461608886719, 40.116596221923828 ] } },
{ "type": "Feature", "properties": { "name": "Chicago", "STATE": "IL", "NAME_2": "Illinois", "waterQuality": "50" }, "geometry": { "type": "Point", "coordinates": [ -87.650306701660156, 41.850009918212891 ] } },
{ "type": "Feature", "properties": { "name": "Crystal Lake", "STATE": "IL", "NAME_2": "Illinois", "waterQuality": "67" }, "geometry": { "type": "Point", "coordinates": [ -88.316108703613281, 42.24114990234375 ] } },
{ "type": "Feature", "properties": { "name": "Decatur", "STATE": "IL", "NAME_2": "Illinois", "waterQuality": "63" }, "geometry": { "type": "Point", "coordinates": [ -88.955169677734375, 39.840602874755859 ] } },
{ "type": "Feature", "properties": { "name": "Des Plaines", "STATE": "IL", "NAME_2": "Illinois", "waterQuality": "50" }, "geometry": { "type": "Point", "coordinates": [ -87.883384704589844, 42.033439636230469 ] } },
{ "type": "Feature", "properties": { "name": "Naperville", "STATE": "IL", "NAME_2": "Illinois", "waterQuality": "88" }, "geometry": { "type": "Point", "coordinates": [ -88.147682189941406, 41.785789489746094 ] } },
{ "type": "Feature", "properties": { "name": "Peoria", "STATE": "IL", "NAME_2": "Illinois", "waterQuality": "70" }, "geometry": { "type": "Point", "coordinates": [ -89.594871520996094, 40.702419281005859 ] } },
{ "type": "Feature", "properties": { "name": "Rockford", "STATE": "IL", "NAME_2": "Illinois", "waterQuality": "40" }, "geometry": { "type": "Point", "coordinates": [ -89.094284057617188, 42.271350860595703 ] } },
{ "type": "Feature", "properties": { "name": "Schaumburg", "STATE": "IL", "NAME_2": "Illinois", "waterQuality": "25" }, "geometry": { "type": "Point", "coordinates": [ -88.083595275878906, 42.033504486083984 ] } },
{ "type": "Feature", "properties": { "name": "Springfield", "STATE": "IL", "NAME_2": "Illinois", "waterQuality": "50" }, "geometry": { "type": "Point", "coordinates": [ -89.643974304199219, 39.801841735839844 ] } },
{ "type": "Feature", "properties": { "name": "Urbana", "STATE": "IL", "NAME_2": "Illinois", "waterQuality": "75" }, "geometry": { "type": "Point", "coordinates": [ -88.207466125488281, 40.110790252685547 ] } },
{ "type": "Feature", "properties": { "name": "Annapolis", "STATE": "MD", "NAME_2": "Maryland", "waterQuality": "53" }, "geometry": { "type": "Point", "coordinates": [ -76.491661071777344, 38.978446960449219 ] } },
{ "type": "Feature", "properties": { "name": "Baltimore", "STATE": "MD", "NAME_2": "Maryland", "waterQuality": "39" }, "geometry": { "type": "Point", "coordinates": [ -76.611579895019531, 39.290756225585938 ] } },
{ "type": "Feature", "properties": { "name": "Frederick", "STATE": "MD", "NAME_2": "Maryland", "waterQuality": "67" }, "geometry": { "type": "Point", "coordinates": [ -77.409812927246094, 39.414443969726563 ] } },
{ "type": "Feature", "properties": { "name": "Germantown", "STATE": "MD", "NAME_2": "Maryland", "waterQuality": "100" }, "geometry": { "type": "Point", "coordinates": [ -77.271217346191406, 39.173587799072266 ] } },
{ "type": "Feature", "properties": { "name": "Hagerstown", "STATE": "MD", "NAME_2": "Maryland", "waterQuality": "50" }, "geometry": { "type": "Point", "coordinates": [ -77.719566345214844, 39.641819000244141 ] } },
{ "type": "Feature", "properties": { "name": "Salisbury", "STATE": "MD", "NAME_2": "Maryland", "waterQuality": "67" }, "geometry": { "type": "Point", "coordinates": [ -75.598472595214844, 38.361003875732422 ] } },
{ "type": "Feature", "properties": { "name": "Silver Spring", "STATE": "MD", "NAME_2": "Maryland", "waterQuality": "69" }, "geometry": { "type": "Point", "coordinates": [ -77.025527954101563, 38.990695953369141 ] } },
{ "type": "Feature", "properties": { "name": "Boise", "STATE": "ID", "NAME_2": "Idaho", "waterQuality": "71" }, "geometry": { "type": "Point", "coordinates": [ -116.205734252929688, 43.613079071044922 ] } },
{ "type": "Feature", "properties": { "name": "Coeur d'Alene", "STATE": "ID", "NAME_2": "Idaho", "waterQuality": "50" }, "geometry": { "type": "Point", "coordinates": [ -116.781929016113281, 47.677684783935547 ] } },
{ "type": "Feature", "properties": { "name": "Idaho Falls", "STATE": "ID", "NAME_2": "Idaho", "waterQuality": "83" }, "geometry": { "type": "Point", "coordinates": [ -112.035408020019531, 43.466304779052734 ] } },
{ "type": "Feature", "properties": { "name": "Pocatello", "STATE": "ID", "NAME_2": "Idaho", "waterQuality": "0" }, "geometry": { "type": "Point", "coordinates": [ -112.447593688964844, 42.870986938476563 ] } },
{ "type": "Feature", "properties": { "name": "Burlington", "STATE": "VT", "NAME_2": "Vermont", "waterQuality": "75" }, "geometry": { "type": "Point", "coordinates": [ -73.205429077148438, 44.476875305175781 ] } },
{ "type": "Feature", "properties": { "name": "Fairfield", "STATE": "CT", "NAME_2": "Connecticut", "waterQuality": "38" }, "geometry": { "type": "Point", "coordinates": [ -73.26300048828125, 41.141227722167969 ] } },
{ "type": "Feature", "properties": { "name": "Hartford", "STATE": "CT", "NAME_2": "Connecticut", "waterQuality": "50" }, "geometry": { "type": "Point", "coordinates": [ -72.684455871582031, 41.763835906982422 ] } },
{ "type": "Feature", "properties": { "name": "New Haven", "STATE": "CT", "NAME_2": "Connecticut", "waterQuality": "68" }, "geometry": { "type": "Point", "coordinates": [ -72.927268981933594, 41.308425903320313 ] } },
{ "type": "Feature", "properties": { "name": "Norwalk", "STATE": "CT", "NAME_2": "Connecticut", "waterQuality": "88" }, "geometry": { "type": "Point", "coordinates": [ -73.407295227050781, 41.117599487304688 ] } },
{ "type": "Feature", "properties": { "name": "Stamford", "STATE": "CT", "NAME_2": "Connecticut", "waterQuality": "55" }, "geometry": { "type": "Point", "coordinates": [ -73.538070678710938, 41.053531646728516 ] } },
{ "type": "Feature", "properties": { "name": "West Hartford", "STATE": "CT", "NAME_2": "Connecticut", "waterQuality": "100" }, "geometry": { "type": "Point", "coordinates": [ -72.7410888671875, 41.762382507324219 ] } },
{ "type": "Feature", "properties": { "name": "Albuquerque", "STATE": "NM", "NAME_2": "New Mexico", "waterQuality": "59" }, "geometry": { "type": "Point", "coordinates": [ -106.651763916015625, 35.083366394042969 ] } },
{ "type": "Feature", "properties": { "name": "Farmington", "STATE": "NM", "NAME_2": "New Mexico", "waterQuality": "50" }, "geometry": { "type": "Point", "coordinates": [ -108.205154418945313, 36.733558654785156 ] } },
{ "type": "Feature", "properties": { "name": "Las Cruces", "STATE": "NM", "NAME_2": "New Mexico", "waterQuality": "67" }, "geometry": { "type": "Point", "coordinates": [ -106.779853820800781, 32.312095642089844 ] } },
{ "type": "Feature", "properties": { "name": "Santa Fe", "STATE": "NM", "NAME_2": "New Mexico", "waterQuality": "61" }, "geometry": { "type": "Point", "coordinates": [ -105.946815490722656, 35.680145263671875 ] } },
{ "type": "Feature", "properties": { "name": "Hoboken", "STATE": "NJ", "NAME_2": "New Jersey", "waterQuality": "38" }, "geometry": { "type": "Point", "coordinates": [ -74.031692504882813, 40.744342803955078 ] } },
{ "type": "Feature", "properties": { "name": "Jersey City", "STATE": "NJ", "NAME_2": "New Jersey", "waterQuality": "58" }, "geometry": { "type": "Point", "coordinates": [ -74.076675415039063, 40.728168487548828 ] } },
{ "type": "Feature", "properties": { "name": "Newark", "STATE": "NJ", "NAME_2": "New Jersey", "waterQuality": "40" }, "geometry": { "type": "Point", "coordinates": [ -74.171852111816406, 40.735706329345703 ] } },
{ "type": "Feature", "properties": { "name": "Princeton", "STATE": "NJ", "NAME_2": "New Jersey", "waterQuality": "67" }, "geometry": { "type": "Point", "coordinates": [ -74.658058166503906, 40.348720550537109 ] } },
{ "type": "Feature", "properties": { "name": "Trenton", "STATE": "NJ", "NAME_2": "New Jersey", "waterQuality": "0" }, "geometry": { "type": "Point", "coordinates": [ -74.7420654296875, 40.217094421386719 ] } },
{ "type": "Feature", "properties": { "name": "Lincoln", "STATE": "NE", "NAME_2": "Nebraska", "waterQuality": "66" }, "geometry": { "type": "Point", "coordinates": [ -96.667411804199219, 40.800010681152344 ] } },
{ "type": "Feature", "properties": { "name": "Omaha", "STATE": "NE", "NAME_2": "Nebraska", "waterQuality": "71" }, "geometry": { "type": "Point", "coordinates": [ -95.938255310058594, 41.2587890625 ] } },
{ "type": "Feature", "properties": { "name": "Allentown", "STATE": "PA", "NAME_2": "Pennsylvania", "waterQuality": "25" }, "geometry": { "type": "Point", "coordinates": [ -75.4656982421875, 40.608512878417969 ] } },
{ "type": "Feature", "properties": { "name": "Erie", "STATE": "PA", "NAME_2": "Pennsylvania", "waterQuality": "0" }, "geometry": { "type": "Point", "coordinates": [ -80.084922790527344, 42.129264831542969 ] } },
{ "type": "Feature", "properties": { "name": "Harrisburg", "STATE": "PA", "NAME_2": "Pennsylvania", "waterQuality": "60" }, "geometry": { "type": "Point", "coordinates": [ -76.883827209472656, 40.274074554443359 ] } },
{ "type": "Feature", "properties": { "name": "Johnstown", "STATE": "PA", "NAME_2": "Pennsylvania", "waterQuality": "50" }, "geometry": { "type": "Point", "coordinates": [ -78.921272277832031, 40.326930999755859 ] } },
{ "type": "Feature", "properties": { "name": "Lancaster", "STATE": "PA", "NAME_2": "Pennsylvania", "waterQuality": "55" }, "geometry": { "type": "Point", "coordinates": [ -76.304985046386719, 40.038242340087891 ] } },
{ "type": "Feature", "properties": { "name": "Philadelphia", "STATE": "PA", "NAME_2": "Pennsylvania", "waterQuality": "46" }, "geometry": { "type": "Point", "coordinates": [ -75.163223266601563, 39.952438354492188 ] } },
{ "type": "Feature", "properties": { "name": "Pittsburgh", "STATE": "PA", "NAME_2": "Pennsylvania", "waterQuality": "42" }, "geometry": { "type": "Point", "coordinates": [ -79.995376586914063, 40.440914154052734 ] } },
{ "type": "Feature", "properties": { "name": "Reading", "STATE": "PA", "NAME_2": "Pennsylvania", "waterQuality": "77" }, "geometry": { "type": "Point", "coordinates": [ -75.925949096679688, 40.335628509521484 ] } },
{ "type": "Feature", "properties": { "name": "Scranton", "STATE": "PA", "NAME_2": "Pennsylvania", "waterQuality": "63" }, "geometry": { "type": "Point", "coordinates": [ -75.661849975585938, 41.409191131591797 ] } },
{ "type": "Feature", "properties": { "name": "State College", "STATE": "PA", "NAME_2": "Pennsylvania", "waterQuality": "100" }, "geometry": { "type": "Point", "coordinates": [ -77.859733581542969, 40.793369293212891 ] } },
{ "type": "Feature", "properties": { "name": "Athens", "STATE": "GA", "NAME_2": "Georgia", "waterQuality": "75" }, "geometry": { "type": "Point", "coordinates": [ -83.377830505371094, 33.961162567138672 ] } },
{ "type": "Feature", "properties": { "name": "Atlanta", "STATE": "GA", "NAME_2": "Georgia", "waterQuality": "52" }, "geometry": { "type": "Point", "coordinates": [ -84.3875732421875, 33.749275207519531 ] } },
{ "type": "Feature", "properties": { "name": "Augusta", "STATE": "GA", "NAME_2": "Georgia", "waterQuality": "67" }, "geometry": { "type": "Point", "coordinates": [ -81.963859558105469, 33.473346710205078 ] } },
{ "type": "Feature", "properties": { "name": "Brunswick", "STATE": "GA", "NAME_2": "Georgia", "waterQuality": "67" }, "geometry": { "type": "Point", "coordinates": [ -81.49102783203125, 31.150228500366211 ] } },
{ "type": "Feature", "properties": { "name": "Columbus", "STATE": "GA", "NAME_2": "Georgia", "waterQuality": "44" }, "geometry": { "type": "Point", "coordinates": [ -84.983131408691406, 32.468288421630859 ] } },
{ "type": "Feature", "properties": { "name": "Gainesville", "STATE": "GA", "NAME_2": "Georgia", "waterQuality": "50" }, "geometry": { "type": "Point", "coordinates": [ -83.823898315429688, 34.297878265380859 ] } },
{ "type": "Feature", "properties": { "name": "Macon", "STATE": "GA", "NAME_2": "Georgia", "waterQuality": "50" }, "geometry": { "type": "Point", "coordinates": [ -83.632400512695313, 32.8409423828125 ] } },
{ "type": "Feature", "properties": { "name": "Marietta", "STATE": "GA", "NAME_2": "Georgia", "waterQuality": "90" }, "geometry": { "type": "Point", "coordinates": [ -84.549583435058594, 33.952735900878906 ] } },
{ "type": "Feature", "properties": { "name": "Savannah", "STATE": "GA", "NAME_2": "Georgia", "waterQuality": "48" }, "geometry": { "type": "Point", "coordinates": [ -81.094635009765625, 32.072807312011719 ] } },
{ "type": "Feature", "properties": { "name": "Statesboro", "STATE": "GA", "NAME_2": "Georgia", "waterQuality": "58" }, "geometry": { "type": "Point", "coordinates": [ -81.782669067382813, 32.449142456054688 ] } },
{ "type": "Feature", "properties": { "name": "Valdosta", "STATE": "GA", "NAME_2": "Georgia", "waterQuality": "50" }, "geometry": { "type": "Point", "coordinates": [ -83.278068542480469, 30.832935333251953 ] } },
{ "type": "Feature", "properties": { "name": "Warner Robins", "STATE": "GA", "NAME_2": "Georgia", "waterQuality": "63" }, "geometry": { "type": "Point", "coordinates": [ -83.599639892578125, 32.621181488037109 ] } },
{ "type": "Feature", "properties": { "name": "Aurora", "STATE": "CO", "NAME_2": "Colorado", "waterQuality": "67" }, "geometry": { "type": "Point", "coordinates": [ -104.869316101074219, 39.739837646484375 ] } },
{ "type": "Feature", "properties": { "name": "Boulder", "STATE": "CO", "NAME_2": "Colorado", "waterQuality": "50" }, "geometry": { "type": "Point", "coordinates": [ -105.271530151367188, 40.014839172363281 ] } },
{ "type": "Feature", "properties": { "name": "Colorado Springs", "STATE": "CO", "NAME_2": "Colorado", "waterQuality": "63" }, "geometry": { "type": "Point", "coordinates": [ -104.822517395019531, 38.833694458007813 ] } },
{ "type": "Feature", "properties": { "name": "Denver", "STATE": "CO", "NAME_2": "Colorado", "waterQuality": "65" }, "geometry": { "type": "Point", "coordinates": [ -104.985374450683594, 39.739017486572266 ] } },
{ "type": "Feature", "properties": { "name": "Durango", "STATE": "CO", "NAME_2": "Colorado", "waterQuality": "44" }, "geometry": { "type": "Point", "coordinates": [ -107.881004333496094, 37.274639129638672 ] } },
{ "type": "Feature", "properties": { "name": "Fort Collins", "STATE": "CO", "NAME_2": "Colorado", "waterQuality": "69" }, "geometry": { "type": "Point", "coordinates": [ -105.085868835449219, 40.585460662841797 ] } },
{ "type": "Feature", "properties": { "name": "Grand Junction", "STATE": "CO", "NAME_2": "Colorado", "waterQuality": "82" }, "geometry": { "type": "Point", "coordinates": [ -108.552070617675781, 39.063747406005859 ] } },
{ "type": "Feature", "properties": { "name": "Loveland", "STATE": "CO", "NAME_2": "Colorado", "waterQuality": "56" }, "geometry": { "type": "Point", "coordinates": [ -105.075599670410156, 40.397636413574219 ] } },
{ "type": "Feature", "properties": { "name": "Pueblo", "STATE": "CO", "NAME_2": "Colorado", "waterQuality": "50" }, "geometry": { "type": "Point", "coordinates": [ -104.610855102539063, 38.254505157470703 ] } },
{ "type": "Feature", "properties": { "name": "Charleston", "STATE": "SC", "NAME_2": "South Carolina", "waterQuality": "45" }, "geometry": { "type": "Point", "coordinates": [ -79.930320739746094, 32.776718139648438 ] } },
{ "type": "Feature", "properties": { "name": "Columbia", "STATE": "SC", "NAME_2": "South Carolina", "waterQuality": "48" }, "geometry": { "type": "Point", "coordinates": [ -81.040451049804688, 34.001388549804688 ] } },
{ "type": "Feature", "properties": { "name": "Greenville", "STATE": "SC", "NAME_2": "South Carolina", "waterQuality": "91" }, "geometry": { "type": "Point", "coordinates": [ -82.398704528808594, 34.8475341796875 ] } },
{ "type": "Feature", "properties": { "name": "Hilton Head Island", "STATE": "SC", "NAME_2": "South Carolina", "waterQuality": "75" }, "geometry": { "type": "Point", "coordinates": [ -80.752510070800781, 32.216655731201172 ] } },
{ "type": "Feature", "properties": { "name": "Myrtle Beach", "STATE": "SC", "NAME_2": "South Carolina", "waterQuality": "50" }, "geometry": { "type": "Point", "coordinates": [ -78.886016845703125, 33.696563720703125 ] } },
{ "type": "Feature", "properties": { "name": "Spartanburg", "STATE": "SC", "NAME_2": "South Carolina", "waterQuality": "75" }, "geometry": { "type": "Point", "coordinates": [ -81.931602478027344, 34.949825286865234 ] } },
{ "type": "Feature", "properties": { "name": "Lawton", "STATE": "OK", "NAME_2": "Oklahoma", "waterQuality": "50" }, "geometry": { "type": "Point", "coordinates": [ -98.391242980957031, 34.608619689941406 ] } },
{ "type": "Feature", "properties": { "name": "Oklahoma City", "STATE": "OK", "NAME_2": "Oklahoma", "waterQuality": "68" }, "geometry": { "type": "Point", "coordinates": [ -97.516998291015625, 35.467613220214844 ] } },
{ "type": "Feature", "properties": { "name": "Stillwater", "STATE": "OK", "NAME_2": "Oklahoma", "waterQuality": "50" }, "geometry": { "type": "Point", "coordinates": [ -97.058891296386719, 36.115806579589844 ] } },
{ "type": "Feature", "properties": { "name": "Tulsa", "STATE": "OK", "NAME_2": "Oklahoma", "waterQuality": "61" }, "geometry": { "type": "Point", "coordinates": [ -95.984886169433594, 36.160324096679688 ] } },
{ "type": "Feature", "properties": { "name": "Bismarck", "STATE": "ND", "NAME_2": "North Dakota", "waterQuality": "79" }, "geometry": { "type": "Point", "coordinates": [ -100.778961181640625, 46.806739807128906 ] } },
{ "type": "Feature", "properties": { "name": "Fargo", "STATE": "ND", "NAME_2": "North Dakota", "waterQuality": "100" }, "geometry": { "type": "Point", "coordinates": [ -96.798057556152344, 46.874984741210938 ] } },
{ "type": "Feature", "properties": { "name": "Williston", "STATE": "ND", "NAME_2": "North Dakota", "waterQuality": "25" }, "geometry": { "type": "Point", "coordinates": [ -103.630744934082031, 48.146507263183594 ] } },
{ "type": "Feature", "properties": { "name": "Bowling Green", "STATE": "KY", "NAME_2": "Kentucky", "waterQuality": "0" }, "geometry": { "type": "Point", "coordinates": [ -86.443702697753906, 36.990573883056641 ] } },
{ "type": "Feature", "properties": { "name": "Lexington", "STATE": "KY", "NAME_2": "Kentucky", "waterQuality": "63" }, "geometry": { "type": "Point", "coordinates": [ -84.4998779296875, 38.049198150634766 ] } },
{ "type": "Feature", "properties": { "name": "Louisville", "STATE": "KY", "NAME_2": "Kentucky", "waterQuality": "58" }, "geometry": { "type": "Point", "coordinates": [ -85.759498596191406, 38.254234313964844 ] } },
{ "type": "Feature", "properties": { "name": "Owensboro", "STATE": "KY", "NAME_2": "Kentucky", "waterQuality": "33" }, "geometry": { "type": "Point", "coordinates": [ -87.113456726074219, 37.774211883544922 ] } },
{ "type": "Feature", "properties": { "name": "Paducah", "STATE": "KY", "NAME_2": "Kentucky", "waterQuality": "38" }, "geometry": { "type": "Point", "coordinates": [ -88.60009765625, 37.083332061767578 ] } },
{ "type": "Feature", "properties": { "name": "Richmond", "STATE": "KY", "NAME_2": "Kentucky", "waterQuality": "53" }, "geometry": { "type": "Point", "coordinates": [ -84.29437255859375, 37.748188018798828 ] } },
{ "type": "Feature", "properties": { "name": "Carson City", "STATE": "NV", "NAME_2": "Nevada", "waterQuality": "50" }, "geometry": { "type": "Point", "coordinates": [ -119.768798828125, 39.163528442382813 ] } },
{ "type": "Feature", "properties": { "name": "Henderson", "STATE": "NV", "NAME_2": "Nevada", "waterQuality": "54" }, "geometry": { "type": "Point", "coordinates": [ -114.974105834960938, 36.035404205322266 ] } },
{ "type": "Feature", "properties": { "name": "Las Vegas", "STATE": "NV", "NAME_2": "Nevada", "waterQuality": "52" }, "geometry": { "type": "Point", "coordinates": [ -115.138214111328125, 36.174880981445313 ] } },
{ "type": "Feature", "properties": { "name": "Reno", "STATE": "NV", "NAME_2": "Nevada", "waterQuality": "72" }, "geometry": { "type": "Point", "coordinates": [ -119.816093444824219, 39.529483795166016 ] } },
{ "type": "Feature", "properties": { "name": "Anchorage", "STATE": "AK", "NAME_2": "Alaska", "waterQuality": "81" }, "geometry": { "type": "Point", "coordinates": [ -149.881195068359375, 61.216499328613281 ] } },
{ "type": "Feature", "properties": { "name": "Fairbanks", "STATE": "AK", "NAME_2": "Alaska", "waterQuality": "90" }, "geometry": { "type": "Point", "coordinates": [ -147.71856689453125, 64.833671569824219 ] } },
{ "type": "Feature", "properties": { "name": "Juneau", "STATE": "AK", "NAME_2": "Alaska", "waterQuality": "75" }, "geometry": { "type": "Point", "coordinates": [ -134.413406372070313, 58.302330017089844 ] } },
{ "type": "Feature", "properties": { "name": "Fayetteville", "STATE": "AR", "NAME_2": "Arkansas", "waterQuality": "75" }, "geometry": { "type": "Point", "coordinates": [ -94.1575927734375, 36.06256103515625 ] } },
{ "type": "Feature", "properties": { "name": "Fort Smith", "STATE": "AR", "NAME_2": "Arkansas", "waterQuality": "75" }, "geometry": { "type": "Point", "coordinates": [ -94.399192810058594, 35.386211395263672 ] } },
{ "type": "Feature", "properties": { "name": "Little Rock", "STATE": "AR", "NAME_2": "Arkansas", "waterQuality": "77" }, "geometry": { "type": "Point", "coordinates": [ -92.281784057617188, 34.736919403076172 ] } },
{ "type": "Feature", "properties": { "name": "Kansas City", "STATE": "KS", "NAME_2": "Kansas", "waterQuality": "69" }, "geometry": { "type": "Point", "coordinates": [ -94.628082275390625, 39.114177703857422 ] } },
{ "type": "Feature", "properties": { "name": "Manhattan", "STATE": "KS", "NAME_2": "Kansas", "waterQuality": "67" }, "geometry": { "type": "Point", "coordinates": [ -96.572288513183594, 39.183540344238281 ] } },
{ "type": "Feature", "properties": { "name": "Overland Park", "STATE": "KS", "NAME_2": "Kansas", "waterQuality": "82" }, "geometry": { "type": "Point", "coordinates": [ -94.671249389648438, 38.982162475585938 ] } },
{ "type": "Feature", "properties": { "name": "Topeka", "STATE": "KS", "NAME_2": "Kansas", "waterQuality": "44" }, "geometry": { "type": "Point", "coordinates": [ -95.678573608398438, 39.048137664794922 ] } },
{ "type": "Feature", "properties": { "name": "Wichita", "STATE": "KS", "NAME_2": "Kansas", "waterQuality": "67" }, "geometry": { "type": "Point", "coordinates": [ -97.338325500488281, 37.692306518554688 ] } },
{ "type": "Feature", "properties": { "name": "Aberdeen", "STATE": "SD", "NAME_2": "South Dakota", "waterQuality": "85" }, "geometry": { "type": "Point", "coordinates": [ -98.482734680175781, 45.461803436279297 ] } },
{ "type": "Feature", "properties": { "name": "Rapid City", "STATE": "SD", "NAME_2": "South Dakota", "waterQuality": "60" }, "geometry": { "type": "Point", "coordinates": [ -103.232582092285156, 44.080787658691406 ] } },
{ "type": "Feature", "properties": { "name": "Sioux Falls", "STATE": "SD", "NAME_2": "South Dakota", "waterQuality": "79" }, "geometry": { "type": "Point", "coordinates": [ -96.734291076660156, 43.541774749755859 ] } },
{ "type": "Feature", "properties": { "name": "Watertown", "STATE": "SD", "NAME_2": "South Dakota", "waterQuality": "50" }, "geometry": { "type": "Point", "coordinates": [ -97.114555358886719, 44.901527404785156 ] } },
{ "type": "Feature", "properties": { "name": "Alexandria", "STATE": "VA", "NAME_2": "Virginia", "waterQuality": "57" }, "geometry": { "type": "Point", "coordinates": [ -77.046051025390625, 38.805030822753906 ] } },
{ "type": "Feature", "properties": { "name": "Arlington", "STATE": "VA", "NAME_2": "Virginia", "waterQuality": "81" }, "geometry": { "type": "Point", "coordinates": [ -77.100578308105469, 38.871376037597656 ] } },
{ "type": "Feature", "properties": { "name": "Ashburn", "STATE": "VA", "NAME_2": "Virginia", "waterQuality": "75" }, "geometry": { "type": "Point", "coordinates": [ -77.487190246582031, 39.043716430664063 ] } },
{ "type": "Feature", "properties": { "name": "Charlottesville", "STATE": "VA", "NAME_2": "Virginia", "waterQuality": "42" }, "geometry": { "type": "Point", "coordinates": [ -78.491233825683594, 38.037986755371094 ] } },
{ "type": "Feature", "properties": { "name": "Fairfax", "STATE": "VA", "NAME_2": "Virginia", "waterQuality": "75" }, "geometry": { "type": "Point", "coordinates": [ -77.305885314941406, 38.84661865234375 ] } },
{ "type": "Feature", "properties": { "name": "Lynchburg", "STATE": "VA", "NAME_2": "Virginia", "waterQuality": "100" }, "geometry": { "type": "Point", "coordinates": [ -79.141746520996094, 37.413833618164063 ] } },
{ "type": "Feature", "properties": { "name": "Newport News", "STATE": "VA", "NAME_2": "Virginia", "waterQuality": "38" }, "geometry": { "type": "Point", "coordinates": [ -76.427589416503906, 36.979099273681641 ] } },
{ "type": "Feature", "properties": { "name": "Reston", "STATE": "VA", "NAME_2": "Virginia", "waterQuality": "81" }, "geometry": { "type": "Point", "coordinates": [ -77.340682983398438, 38.968730926513672 ] } },
{ "type": "Feature", "properties": { "name": "Richmond", "STATE": "VA", "NAME_2": "Virginia", "waterQuality": "73" }, "geometry": { "type": "Point", "coordinates": [ -77.459625244140625, 37.554126739501953 ] } },
{ "type": "Feature", "properties": { "name": "Roanoke", "STATE": "VA", "NAME_2": "Virginia", "waterQuality": "64" }, "geometry": { "type": "Point", "coordinates": [ -79.941116333007813, 37.271198272705078 ] } },
{ "type": "Feature", "properties": { "name": "Virginia Beach", "STATE": "VA", "NAME_2": "Virginia", "waterQuality": "63" }, "geometry": { "type": "Point", "coordinates": [ -75.977516174316406, 36.853378295898438 ] } },
{ "type": "Feature", "properties": { "name": "Winchester", "STATE": "VA", "NAME_2": "Virginia", "waterQuality": "50" }, "geometry": { "type": "Point", "coordinates": [ -78.163017272949219, 39.186084747314453 ] } },
{ "type": "Feature", "properties": { "name": "Ames", "STATE": "IA", "NAME_2": "Iowa", "waterQuality": "50" }, "geometry": { "type": "Point", "coordinates": [ -93.613700866699219, 42.022693634033203 ] } },
{ "type": "Feature", "properties": { "name": "Burlington", "STATE": "IA", "NAME_2": "Iowa", "waterQuality": "63" }, "geometry": { "type": "Point", "coordinates": [ -91.112960815429688, 40.807735443115234 ] } },
{ "type": "Feature", "properties": { "name": "Cedar Rapids", "STATE": "IA", "NAME_2": "Iowa", "waterQuality": "100" }, "geometry": { "type": "Point", "coordinates": [ -91.66259765625, 41.983375549316406 ] } },
{ "type": "Feature", "properties": { "name": "Davenport", "STATE": "IA", "NAME_2": "Iowa", "waterQuality": "38" }, "geometry": { "type": "Point", "coordinates": [ -90.578140258789063, 41.523807525634766 ] } },
{ "type": "Feature", "properties": { "name": "Des Moines", "STATE": "IA", "NAME_2": "Iowa", "waterQuality": "67" }, "geometry": { "type": "Point", "coordinates": [ -93.621002197265625, 41.598171234130859 ] } },
{ "type": "Feature", "properties": { "name": "Iowa City", "STATE": "IA", "NAME_2": "Iowa", "waterQuality": "75" }, "geometry": { "type": "Point", "coordinates": [ -91.530235290527344, 41.661300659179688 ] } },
{ "type": "Feature", "properties": { "name": "Sioux City", "STATE": "IA", "NAME_2": "Iowa", "waterQuality": "50" }, "geometry": { "type": "Point", "coordinates": [ -96.400856018066406, 42.500156402587891 ] } },
{ "type": "Feature", "properties": { "name": "Waterloo", "STATE": "IA", "NAME_2": "Iowa", "waterQuality": "68" }, "geometry": { "type": "Point", "coordinates": [ -92.343208312988281, 42.492774963378906 ] } },
{ "type": "Feature", "properties": { "name": "Chandler", "STATE": "AZ", "NAME_2": "Arizona", "waterQuality": "55" }, "geometry": { "type": "Point", "coordinates": [ -111.84283447265625, 33.306243896484375 ] } },
{ "type": "Feature", "properties": { "name": "Flagstaff", "STATE": "AZ", "NAME_2": "Arizona", "waterQuality": "81" }, "geometry": { "type": "Point", "coordinates": [ -111.653305053710938, 35.198024749755859 ] } },
{ "type": "Feature", "properties": { "name": "Mesa", "STATE": "AZ", "NAME_2": "Arizona", "waterQuality": "58" }, "geometry": { "type": "Point", "coordinates": [ -111.823905944824219, 33.422222137451172 ] } },
{ "type": "Feature", "properties": { "name": "Peoria", "STATE": "AZ", "NAME_2": "Arizona", "waterQuality": "81" }, "geometry": { "type": "Point", "coordinates": [ -112.23907470703125, 33.580841064453125 ] } },
{ "type": "Feature", "properties": { "name": "Phoenix", "STATE": "AZ", "NAME_2": "Arizona", "waterQuality": "51" }, "geometry": { "type": "Point", "coordinates": [ -112.075271606445313, 33.448253631591797 ] } },
{ "type": "Feature", "properties": { "name": "Prescott", "STATE": "AZ", "NAME_2": "Arizona", "waterQuality": "75" }, "geometry": { "type": "Point", "coordinates": [ -112.470230102539063, 34.540081024169922 ] } },
{ "type": "Feature", "properties": { "name": "Scottsdale", "STATE": "AZ", "NAME_2": "Arizona", "waterQuality": "73" }, "geometry": { "type": "Point", "coordinates": [ -111.900253295898438, 33.509185791015625 ] } },
{ "type": "Feature", "properties": { "name": "Sierra Vista", "STATE": "AZ", "NAME_2": "Arizona", "waterQuality": "88" }, "geometry": { "type": "Point", "coordinates": [ -110.304832458496094, 31.554492950439453 ] } },
{ "type": "Feature", "properties": { "name": "Tempe", "STATE": "AZ", "NAME_2": "Arizona", "waterQuality": "54" }, "geometry": { "type": "Point", "coordinates": [ -111.91082763671875, 33.415042877197266 ] } },
{ "type": "Feature", "properties": { "name": "Tucson", "STATE": "AZ", "NAME_2": "Arizona", "waterQuality": "62" }, "geometry": { "type": "Point", "coordinates": [ -110.92779541015625, 32.222091674804688 ] } },
{ "type": "Feature", "properties": { "name": "Newport", "STATE": "RI", "NAME_2": "Rhode Island", "waterQuality": "50" }, "geometry": { "type": "Point", "coordinates": [ -71.3121337890625, 41.490249633789063 ] } },
{ "type": "Feature", "properties": { "name": "Providence", "STATE": "RI", "NAME_2": "Rhode Island", "waterQuality": "45" }, "geometry": { "type": "Point", "coordinates": [ -71.40118408203125, 41.829902648925781 ] } },
{ "type": "Feature", "properties": { "name": "Concord", "STATE": "NH", "NAME_2": "New Hampshire", "waterQuality": "85" }, "geometry": { "type": "Point", "coordinates": [ -71.536888122558594, 43.208209991455078 ] } },
{ "type": "Feature", "properties": { "name": "Hanover", "STATE": "NH", "NAME_2": "New Hampshire", "waterQuality": "75" }, "geometry": { "type": "Point", "coordinates": [ -72.2884521484375, 43.702339172363281 ] } },
{ "type": "Feature", "properties": { "name": "Manchester", "STATE": "NH", "NAME_2": "New Hampshire", "waterQuality": "62" }, "geometry": { "type": "Point", "coordinates": [ -71.454063415527344, 42.995815277099609 ] } },
{ "type": "Feature", "properties": { "name": "Portsmouth", "STATE": "NH", "NAME_2": "New Hampshire", "waterQuality": "63" }, "geometry": { "type": "Point", "coordinates": [ -70.761642456054688, 43.071983337402344 ] } },
{ "type": "Feature", "properties": { "name": "Asheville", "STATE": "NC", "NAME_2": "North Carolina", "waterQuality": "56" }, "geometry": { "type": "Point", "coordinates": [ -82.553672790527344, 35.601348876953125 ] } },
{ "type": "Feature", "properties": { "name": "Boone", "STATE": "NC", "NAME_2": "North Carolina", "waterQuality": "33" }, "geometry": { "type": "Point", "coordinates": [ -81.674362182617188, 36.216964721679688 ] } },
{ "type": "Feature", "properties": { "name": "Chapel Hill", "STATE": "NC", "NAME_2": "North Carolina", "waterQuality": "58" }, "geometry": { "type": "Point", "coordinates": [ -79.056976318359375, 35.911106109619141 ] } },
{ "type": "Feature", "properties": { "name": "Charlotte", "STATE": "NC", "NAME_2": "North Carolina", "waterQuality": "67" }, "geometry": { "type": "Point", "coordinates": [ -80.842575073242188, 35.227462768554688 ] } },
{ "type": "Feature", "properties": { "name": "Durham", "STATE": "NC", "NAME_2": "North Carolina", "waterQuality": "63" }, "geometry": { "type": "Point", "coordinates": [ -78.897872924804688, 35.994129180908203 ] } },
{ "type": "Feature", "properties": { "name": "Fayetteville", "STATE": "NC", "NAME_2": "North Carolina", "waterQuality": "35" }, "geometry": { "type": "Point", "coordinates": [ -78.877716064453125, 35.053138732910156 ] } },
{ "type": "Feature", "properties": { "name": "Greensboro", "STATE": "NC", "NAME_2": "North Carolina", "waterQuality": "72" }, "geometry": { "type": "Point", "coordinates": [ -79.791526794433594, 36.072959899902344 ] } },
{ "type": "Feature", "properties": { "name": "Greenville", "STATE": "NC", "NAME_2": "North Carolina", "waterQuality": "75" }, "geometry": { "type": "Point", "coordinates": [ -77.372154235839844, 35.611709594726563 ] } },
{ "type": "Feature", "properties": { "name": "Raleigh", "STATE": "NC", "NAME_2": "North Carolina", "waterQuality": "71" }, "geometry": { "type": "Point", "coordinates": [ -78.63800048828125, 35.772308349609375 ] } },
{ "type": "Feature", "properties": { "name": "Wilmington", "STATE": "NC", "NAME_2": "North Carolina", "waterQuality": "55" }, "geometry": { "type": "Point", "coordinates": [ -77.944313049316406, 34.225929260253906 ] } },
{ "type": "Feature", "properties": { "name": "Dover", "STATE": "DE", "NAME_2": "Delaware", "waterQuality": "50" }, "geometry": { "type": "Point", "coordinates": [ -75.520904541015625, 39.158538818359375 ] } },
{ "type": "Feature", "properties": { "name": "Anaheim", "STATE": "CA", "NAME_2": "California", "waterQuality": "66" }, "geometry": { "type": "Point", "coordinates": [ -117.916511535644531, 33.835445404052734 ] } },
{ "type": "Feature", "properties": { "name": "Atascadero", "STATE": "CA", "NAME_2": "California", "waterQuality": "0" }, "geometry": { "type": "Point", "coordinates": [ -120.648796081542969, 35.474948883056641 ] } },
{ "type": "Feature", "properties": { "name": "Bakersfield", "STATE": "CA", "NAME_2": "California", "waterQuality": "33" }, "geometry": { "type": "Point", "coordinates": [ -119.020637512207031, 35.373268127441406 ] } },
{ "type": "Feature", "properties": { "name": "Belmont", "STATE": "CA", "NAME_2": "California", "waterQuality": "75" }, "geometry": { "type": "Point", "coordinates": [ -122.278350830078125, 37.519966125488281 ] } },
{ "type": "Feature", "properties": { "name": "Berkeley", "STATE": "CA", "NAME_2": "California", "waterQuality": "64" }, "geometry": { "type": "Point", "coordinates": [ -122.275253295898438, 37.871456146240234 ] } },
{ "type": "Feature", "properties": { "name": "Carlsbad", "STATE": "CA", "NAME_2": "California", "waterQuality": "58" }, "geometry": { "type": "Point", "coordinates": [ -117.352813720703125, 33.158016204833984 ] } },
{ "type": "Feature", "properties": { "name": "Chico", "STATE": "CA", "NAME_2": "California", "waterQuality": "50" }, "geometry": { "type": "Point", "coordinates": [ -121.839447021484375, 39.728462219238281 ] } },
{ "type": "Feature", "properties": { "name": "Concord", "STATE": "CA", "NAME_2": "California", "waterQuality": "88" }, "geometry": { "type": "Point", "coordinates": [ -122.033332824707031, 37.977802276611328 ] } },
{ "type": "Feature", "properties": { "name": "Davis", "STATE": "CA", "NAME_2": "California", "waterQuality": "75" }, "geometry": { "type": "Point", "coordinates": [ -121.742172241210938, 38.544677734375 ] } },
{ "type": "Feature", "properties": { "name": "El Centro", "STATE": "CA", "NAME_2": "California", "waterQuality": "33" }, "geometry": { "type": "Point", "coordinates": [ -115.564605712890625, 32.791999816894531 ] } },
{ "type": "Feature", "properties": { "name": "Eureka", "STATE": "CA", "NAME_2": "California", "waterQuality": "100" }, "geometry": { "type": "Point", "coordinates": [ -124.165336608886719, 40.801567077636719 ] } },
{ "type": "Feature", "properties": { "name": "Fairfield", "STATE": "CA", "NAME_2": "California", "waterQuality": "63" }, "geometry": { "type": "Point", "coordinates": [ -122.042091369628906, 38.249176025390625 ] } },
{ "type": "Feature", "properties": { "name": "Fontana", "STATE": "CA", "NAME_2": "California", "waterQuality": "83" }, "geometry": { "type": "Point", "coordinates": [ -117.436378479003906, 34.092025756835938 ] } },
{ "type": "Feature", "properties": { "name": "Fremont", "STATE": "CA", "NAME_2": "California", "waterQuality": "81" }, "geometry": { "type": "Point", "coordinates": [ -121.974037170410156, 37.551017761230469 ] } },
{ "type": "Feature", "properties": { "name": "Fresno", "STATE": "CA", "NAME_2": "California", "waterQuality": "20" }, "geometry": { "type": "Point", "coordinates": [ -119.77398681640625, 36.747554779052734 ] } },
{ "type": "Feature", "properties": { "name": "Glendale", "STATE": "CA", "NAME_2": "California", "waterQuality": "44" }, "geometry": { "type": "Point", "coordinates": [ -118.256668090820313, 34.142364501953125 ] } },
{ "type": "Feature", "properties": { "name": "Hayward", "STATE": "CA", "NAME_2": "California", "waterQuality": "75" }, "geometry": { "type": "Point", "coordinates": [ -122.083267211914063, 37.668903350830078 ] } },
{ "type": "Feature", "properties": { "name": "Huntington Beach", "STATE": "CA", "NAME_2": "California", "waterQuality": "42" }, "geometry": { "type": "Point", "coordinates": [ -118.000602722167969, 33.660129547119141 ] } },
{ "type": "Feature", "properties": { "name": "Irvine", "STATE": "CA", "NAME_2": "California", "waterQuality": "65" }, "geometry": { "type": "Point", "coordinates": [ -117.824394226074219, 33.669525146484375 ] } },
{ "type": "Feature", "properties": { "name": "Livermore", "STATE": "CA", "NAME_2": "California", "waterQuality": "50" }, "geometry": { "type": "Point", "coordinates": [ -121.7701416015625, 37.681476593017578 ] } },
{ "type": "Feature", "properties": { "name": "Long Beach", "STATE": "CA", "NAME_2": "California", "waterQuality": "70" }, "geometry": { "type": "Point", "coordinates": [ -118.190811157226563, 33.767051696777344 ] } },
{ "type": "Feature", "properties": { "name": "Los Angeles", "STATE": "CA", "NAME_2": "California", "waterQuality": "40" }, "geometry": { "type": "Point", "coordinates": [ -118.24591064453125, 34.052257537841797 ] } },
{ "type": "Feature", "properties": { "name": "Marina", "STATE": "CA", "NAME_2": "California", "waterQuality": "50" }, "geometry": { "type": "Point", "coordinates": [ -121.804283142089844, 36.684150695800781 ] } },
{ "type": "Feature", "properties": { "name": "Modesto", "STATE": "CA", "NAME_2": "California", "waterQuality": "57" }, "geometry": { "type": "Point", "coordinates": [ -120.9991455078125, 37.638973236083984 ] } },
{ "type": "Feature", "properties": { "name": "Monterey", "STATE": "CA", "NAME_2": "California", "waterQuality": "60" }, "geometry": { "type": "Point", "coordinates": [ -121.897483825683594, 36.600238800048828 ] } },
{ "type": "Feature", "properties": { "name": "Mountain View", "STATE": "CA", "NAME_2": "California", "waterQuality": "65" }, "geometry": { "type": "Point", "coordinates": [ -122.086196899414063, 37.385902404785156 ] } },
{ "type": "Feature", "properties": { "name": "Murrieta", "STATE": "CA", "NAME_2": "California", "waterQuality": "75" }, "geometry": { "type": "Point", "coordinates": [ -117.215789794921875, 33.553989410400391 ] } },
{ "type": "Feature", "properties": { "name": "Napa", "STATE": "CA", "NAME_2": "California", "waterQuality": "63" }, "geometry": { "type": "Point", "coordinates": [ -122.287208557128906, 38.296928405761719 ] } },
{ "type": "Feature", "properties": { "name": "Oakland", "STATE": "CA", "NAME_2": "California", "waterQuality": "64" }, "geometry": { "type": "Point", "coordinates": [ -122.2733154296875, 37.804386138916016 ] } },
{ "type": "Feature", "properties": { "name": "Oxnard", "STATE": "CA", "NAME_2": "California", "waterQuality": "100" }, "geometry": { "type": "Point", "coordinates": [ -119.179008483886719, 34.197669982910156 ] } },
{ "type": "Feature", "properties": { "name": "Palm Springs", "STATE": "CA", "NAME_2": "California", "waterQuality": "13" }, "geometry": { "type": "Point", "coordinates": [ -116.546775817871094, 33.830364227294922 ] } },
{ "type": "Feature", "properties": { "name": "Palmdale", "STATE": "CA", "NAME_2": "California", "waterQuality": "50" }, "geometry": { "type": "Point", "coordinates": [ -118.118453979492188, 34.579250335693359 ] } },
{ "type": "Feature", "properties": { "name": "Palo Alto", "STATE": "CA", "NAME_2": "California", "waterQuality": "50" }, "geometry": { "type": "Point", "coordinates": [ -122.144966125488281, 37.441776275634766 ] } },
{ "type": "Feature", "properties": { "name": "Pasadena", "STATE": "CA", "NAME_2": "California", "waterQuality": "75" }, "geometry": { "type": "Point", "coordinates": [ -118.14666748046875, 34.14794921875 ] } },
{ "type": "Feature", "properties": { "name": "Pleasanton", "STATE": "CA", "NAME_2": "California", "waterQuality": "100" }, "geometry": { "type": "Point", "coordinates": [ -121.87713623046875, 37.662208557128906 ] } },
{ "type": "Feature", "properties": { "name": "Redding", "STATE": "CA", "NAME_2": "California", "waterQuality": "60" }, "geometry": { "type": "Point", "coordinates": [ -122.394462585449219, 40.586498260498047 ] } },
{ "type": "Feature", "properties": { "name": "Riverside", "STATE": "CA", "NAME_2": "California", "waterQuality": "52" }, "geometry": { "type": "Point", "coordinates": [ -117.39739990234375, 33.953117370605469 ] } },
{ "type": "Feature", "properties": { "name": "Roseville", "STATE": "CA", "NAME_2": "California", "waterQuality": "60" }, "geometry": { "type": "Point", "coordinates": [ -121.289924621582031, 38.751956939697266 ] } },
{ "type": "Feature", "properties": { "name": "Sacramento", "STATE": "CA", "NAME_2": "California", "waterQuality": "58" }, "geometry": { "type": "Point", "coordinates": [ -121.495979309082031, 38.58154296875 ] } },
{ "type": "Feature", "properties": { "name": "San Diego", "STATE": "CA", "NAME_2": "California", "waterQuality": "46" }, "geometry": { "type": "Point", "coordinates": [ -117.158729553222656, 32.715244293212891 ] } },
{ "type": "Feature", "properties": { "name": "San Francisco", "STATE": "CA", "NAME_2": "California", "waterQuality": "60" }, "geometry": { "type": "Point", "coordinates": [ -122.42132568359375, 37.774650573730469 ] } },
{ "type": "Feature", "properties": { "name": "San Jose", "STATE": "CA", "NAME_2": "California", "waterQuality": "60" }, "geometry": { "type": "Point", "coordinates": [ -121.897384643554688, 37.334915161132813 ] } },
{ "type": "Feature", "properties": { "name": "San Luis Obispo", "STATE": "CA", "NAME_2": "California", "waterQuality": "63" }, "geometry": { "type": "Point", "coordinates": [ -120.662284851074219, 35.282810211181641 ] } },
{ "type": "Feature", "properties": { "name": "San Mateo", "STATE": "CA", "NAME_2": "California", "waterQuality": "88" }, "geometry": { "type": "Point", "coordinates": [ -122.3270263671875, 37.562835693359375 ] } },
{ "type": "Feature", "properties": { "name": "Santa Ana", "STATE": "CA", "NAME_2": "California", "waterQuality": "45" }, "geometry": { "type": "Point", "coordinates": [ -117.869728088378906, 33.745674133300781 ] } },
{ "type": "Feature", "properties": { "name": "Santa Barbara", "STATE": "CA", "NAME_2": "California", "waterQuality": "47" }, "geometry": { "type": "Point", "coordinates": [ -119.705665588378906, 34.423301696777344 ] } },
{ "type": "Feature", "properties": { "name": "Santa Clara", "STATE": "CA", "NAME_2": "California", "waterQuality": "65" }, "geometry": { "type": "Point", "coordinates": [ -121.946434020996094, 37.347541809082031 ] } },
{ "type": "Feature", "properties": { "name": "Santa Cruz", "STATE": "CA", "NAME_2": "California", "waterQuality": "66" }, "geometry": { "type": "Point", "coordinates": [ -122.033355712890625, 36.973899841308594 ] } },
{ "type": "Feature", "properties": { "name": "Santa Monica", "STATE": "CA", "NAME_2": "California", "waterQuality": "46" }, "geometry": { "type": "Point", "coordinates": [ -118.492523193359375, 34.019210815429688 ] } },
{ "type": "Feature", "properties": { "name": "Santa Rosa", "STATE": "CA", "NAME_2": "California", "waterQuality": "68" }, "geometry": { "type": "Point", "coordinates": [ -122.716514587402344, 38.440177917480469 ] } },
{ "type": "Feature", "properties": { "name": "Simi Valley", "STATE": "CA", "NAME_2": "California", "waterQuality": "75" }, "geometry": { "type": "Point", "coordinates": [ -118.783950805664063, 34.269519805908203 ] } },
{ "type": "Feature", "properties": { "name": "Stockton", "STATE": "CA", "NAME_2": "California", "waterQuality": "29" }, "geometry": { "type": "Point", "coordinates": [ -121.29345703125, 37.957767486572266 ] } },
{ "type": "Feature", "properties": { "name": "Sunnyvale", "STATE": "CA", "NAME_2": "California", "waterQuality": "38" }, "geometry": { "type": "Point", "coordinates": [ -122.038070678710938, 37.368789672851563 ] } },
{ "type": "Feature", "properties": { "name": "Temecula", "STATE": "CA", "NAME_2": "California", "waterQuality": "69" }, "geometry": { "type": "Point", "coordinates": [ -117.142814636230469, 33.487907409667969 ] } },
{ "type": "Feature", "properties": { "name": "Thousand Oaks", "STATE": "CA", "NAME_2": "California", "waterQuality": "90" }, "geometry": { "type": "Point", "coordinates": [ -118.839851379394531, 34.170780181884766 ] } },
{ "type": "Feature", "properties": { "name": "Ukiah", "STATE": "CA", "NAME_2": "California", "waterQuality": "50" }, "geometry": { "type": "Point", "coordinates": [ -123.210472106933594, 39.150157928466797 ] } },
{ "type": "Feature", "properties": { "name": "Vallejo", "STATE": "CA", "NAME_2": "California", "waterQuality": "50" }, "geometry": { "type": "Point", "coordinates": [ -122.259429931640625, 38.103950500488281 ] } },
{ "type": "Feature", "properties": { "name": "Ventura", "STATE": "CA", "NAME_2": "California", "waterQuality": "56" }, "geometry": { "type": "Point", "coordinates": [ -119.294898986816406, 34.278362274169922 ] } },
{ "type": "Feature", "properties": { "name": "Victorville", "STATE": "CA", "NAME_2": "California", "waterQuality": "50" }, "geometry": { "type": "Point", "coordinates": [ -117.292816162109375, 34.536121368408203 ] } },
{ "type": "Feature", "properties": { "name": "Appleton", "STATE": "WI", "NAME_2": "Wisconsin", "waterQuality": "75" }, "geometry": { "type": "Point", "coordinates": [ -88.415512084960938, 44.261886596679688 ] } },
{ "type": "Feature", "properties": { "name": "Eau Claire", "STATE": "WI", "NAME_2": "Wisconsin", "waterQuality": "100" }, "geometry": { "type": "Point", "coordinates": [ -91.498764038085938, 44.811374664306641 ] } },
{ "type": "Feature", "properties": { "name": "Green Bay", "STATE": "WI", "NAME_2": "Wisconsin", "waterQuality": "63" }, "geometry": { "type": "Point", "coordinates": [ -88.013702392578125, 44.513359069824219 ] } },
{ "type": "Feature", "properties": { "name": "La Crosse", "STATE": "WI", "NAME_2": "Wisconsin", "waterQuality": "50" }, "geometry": { "type": "Point", "coordinates": [ -91.239677429199219, 43.801513671875 ] } },
{ "type": "Feature", "properties": { "name": "Madison", "STATE": "WI", "NAME_2": "Wisconsin", "waterQuality": "57" }, "geometry": { "type": "Point", "coordinates": [ -89.401283264160156, 43.073036193847656 ] } },
{ "type": "Feature", "properties": { "name": "Milwaukee", "STATE": "WI", "NAME_2": "Wisconsin", "waterQuality": "55" }, "geometry": { "type": "Point", "coordinates": [ -87.906845092773438, 43.03887939453125 ] } },
{ "type": "Feature", "properties": { "name": "Sheboygan", "STATE": "WI", "NAME_2": "Wisconsin", "waterQuality": "100" }, "geometry": { "type": "Point", "coordinates": [ -87.714767456054688, 43.750892639160156 ] } },
{ "type": "Feature", "properties": { "name": "Waukesha", "STATE": "WI", "NAME_2": "Wisconsin", "waterQuality": "100" }, "geometry": { "type": "Point", "coordinates": [ -88.231460571289063, 43.011943817138672 ] } },
{ "type": "Feature", "properties": { "name": "Beaverton", "STATE": "OR", "NAME_2": "Oregon", "waterQuality": "93" }, "geometry": { "type": "Point", "coordinates": [ -122.805534362792969, 45.486701965332031 ] } },
{ "type": "Feature", "properties": { "name": "Eugene", "STATE": "OR", "NAME_2": "Oregon", "waterQuality": "53" }, "geometry": { "type": "Point", "coordinates": [ -123.089836120605469, 44.051948547363281 ] } },
{ "type": "Feature", "properties": { "name": "Klamath Falls", "STATE": "OR", "NAME_2": "Oregon", "waterQuality": "38" }, "geometry": { "type": "Point", "coordinates": [ -121.784477233886719, 42.2244873046875 ] } },
{ "type": "Feature", "properties": { "name": "Medford", "STATE": "OR", "NAME_2": "Oregon", "waterQuality": "75" }, "geometry": { "type": "Point", "coordinates": [ -122.8773193359375, 42.326259613037109 ] } },
{ "type": "Feature", "properties": { "name": "Portland", "STATE": "OR", "NAME_2": "Oregon", "waterQuality": "62" }, "geometry": { "type": "Point", "coordinates": [ -122.678642272949219, 45.523094177246094 ] } },
{ "type": "Feature", "properties": { "name": "Roseburg", "STATE": "OR", "NAME_2": "Oregon", "waterQuality": "60" }, "geometry": { "type": "Point", "coordinates": [ -123.344451904296875, 43.216449737548828 ] } },
{ "type": "Feature", "properties": { "name": "Salem", "STATE": "OR", "NAME_2": "Oregon", "waterQuality": "82" }, "geometry": { "type": "Point", "coordinates": [ -123.0377197265625, 44.942481994628906 ] } },
{ "type": "Feature", "properties": { "name": "Bellevue", "STATE": "WA", "NAME_2": "Washington", "waterQuality": "78" }, "geometry": { "type": "Point", "coordinates": [ -122.202964782714844, 47.610145568847656 ] } },
{ "type": "Feature", "properties": { "name": "Bellingham", "STATE": "WA", "NAME_2": "Washington", "waterQuality": "70" }, "geometry": { "type": "Point", "coordinates": [ -122.472740173339844, 48.761215209960938 ] } },
{ "type": "Feature", "properties": { "name": "Bremerton", "STATE": "WA", "NAME_2": "Washington", "waterQuality": "50" }, "geometry": { "type": "Point", "coordinates": [ -122.634529113769531, 47.566905975341797 ] } },
{ "type": "Feature", "properties": { "name": "Everett", "STATE": "WA", "NAME_2": "Washington", "waterQuality": "63" }, "geometry": { "type": "Point", "coordinates": [ -122.204544067382813, 47.978435516357422 ] } },
{ "type": "Feature", "properties": { "name": "Kennewick", "STATE": "WA", "NAME_2": "Washington", "waterQuality": "75" }, "geometry": { "type": "Point", "coordinates": [ -119.1395263671875, 46.210781097412109 ] } },
{ "type": "Feature", "properties": { "name": "Olympia", "STATE": "WA", "NAME_2": "Washington", "waterQuality": "81" }, "geometry": { "type": "Point", "coordinates": [ -122.890937805175781, 47.040534973144531 ] } },
{ "type": "Feature", "properties": { "name": "Redmond", "STATE": "WA", "NAME_2": "Washington", "waterQuality": "70" }, "geometry": { "type": "Point", "coordinates": [ -122.124000549316406, 47.673671722412109 ] } },
{ "type": "Feature", "properties": { "name": "Renton", "STATE": "WA", "NAME_2": "Washington", "waterQuality": "83" }, "geometry": { "type": "Point", "coordinates": [ -122.219734191894531, 47.482524871826172 ] } },
{ "type": "Feature", "properties": { "name": "Seattle", "STATE": "WA", "NAME_2": "Washington", "waterQuality": "63" }, "geometry": { "type": "Point", "coordinates": [ -122.334396362304688, 47.605712890625 ] } },
{ "type": "Feature", "properties": { "name": "Spokane", "STATE": "WA", "NAME_2": "Washington", "waterQuality": "79" }, "geometry": { "type": "Point", "coordinates": [ -117.428138732910156, 47.658470153808594 ] } },
{ "type": "Feature", "properties": { "name": "Tacoma", "STATE": "WA", "NAME_2": "Washington", "waterQuality": "48" }, "geometry": { "type": "Point", "coordinates": [ -122.446670532226563, 47.252422332763672 ] } },
{ "type": "Feature", "properties": { "name": "Vancouver", "STATE": "WA", "NAME_2": "Washington", "waterQuality": "69" }, "geometry": { "type": "Point", "coordinates": [ -122.681655883789063, 45.635341644287109 ] } },
{ "type": "Feature", "properties": { "name": "Alexandria", "STATE": "LA", "NAME_2": "Louisiana", "waterQuality": "50" }, "geometry": { "type": "Point", "coordinates": [ -92.445175170898438, 31.311437606811523 ] } },
{ "type": "Feature", "properties": { "name": "Baton Rouge", "STATE": "LA", "NAME_2": "Louisiana", "waterQuality": "64" }, "geometry": { "type": "Point", "coordinates": [ -91.154792785644531, 30.451322555541992 ] } },
{ "type": "Feature", "properties": { "name": "Lafayette", "STATE": "LA", "NAME_2": "Louisiana", "waterQuality": "100" }, "geometry": { "type": "Point", "coordinates": [ -92.019874572753906, 30.224681854248047 ] } },
{ "type": "Feature", "properties": { "name": "Lake Charles", "STATE": "LA", "NAME_2": "Louisiana", "waterQuality": "40" }, "geometry": { "type": "Point", "coordinates": [ -93.217666625976563, 30.227138519287109 ] } },
{ "type": "Feature", "properties": { "name": "New Orleans", "STATE": "LA", "NAME_2": "Louisiana", "waterQuality": "30" }, "geometry": { "type": "Point", "coordinates": [ -90.07525634765625, 29.954835891723633 ] } },
{ "type": "Feature", "properties": { "name": "Shreveport", "STATE": "LA", "NAME_2": "Louisiana", "waterQuality": "0" }, "geometry": { "type": "Point", "coordinates": [ -93.750701904296875, 32.525650024414063 ] } },
{ "type": "Feature", "properties": { "name": "Logan", "STATE": "UT", "NAME_2": "Utah", "waterQuality": "100" }, "geometry": { "type": "Point", "coordinates": [ -111.817161560058594, 41.739006042480469 ] } },
{ "type": "Feature", "properties": { "name": "Ogden", "STATE": "UT", "NAME_2": "Utah", "waterQuality": "100" }, "geometry": { "type": "Point", "coordinates": [ -111.9730224609375, 41.225826263427734 ] } },
{ "type": "Feature", "properties": { "name": "Orem", "STATE": "UT", "NAME_2": "Utah", "waterQuality": "67" }, "geometry": { "type": "Point", "coordinates": [ -111.696044921875, 40.296958923339844 ] } },
{ "type": "Feature", "properties": { "name": "Saint George", "STATE": "UT", "NAME_2": "Utah", "waterQuality": "50" }, "geometry": { "type": "Point", "coordinates": [ -113.57940673828125, 37.103195190429688 ] } },
{ "type": "Feature", "properties": { "name": "Salt Lake City", "STATE": "UT", "NAME_2": "Utah", "waterQuality": "54" }, "geometry": { "type": "Point", "coordinates": [ -111.891265869140625, 40.770290374755859 ] } },
{ "type": "Feature", "properties": { "name": "Akron", "STATE": "OH", "NAME_2": "Ohio", "waterQuality": "15" }, "geometry": { "type": "Point", "coordinates": [ -81.518852233886719, 41.081516265869141 ] } },
{ "type": "Feature", "properties": { "name": "Athens", "STATE": "OH", "NAME_2": "Ohio", "waterQuality": "100" }, "geometry": { "type": "Point", "coordinates": [ -82.10113525390625, 39.329349517822266 ] } },
{ "type": "Feature", "properties": { "name": "Canton", "STATE": "OH", "NAME_2": "Ohio", "waterQuality": "75" }, "geometry": { "type": "Point", "coordinates": [ -81.378242492675781, 40.799068450927734 ] } },
{ "type": "Feature", "properties": { "name": "Cincinnati", "STATE": "OH", "NAME_2": "Ohio", "waterQuality": "56" }, "geometry": { "type": "Point", "coordinates": [ -84.519393920898438, 39.104137420654297 ] } },
{ "type": "Feature", "properties": { "name": "Cleveland", "STATE": "OH", "NAME_2": "Ohio", "waterQuality": "48" }, "geometry": { "type": "Point", "coordinates": [ -81.695167541503906, 41.499782562255859 ] } },
{ "type": "Feature", "properties": { "name": "Columbus", "STATE": "OH", "NAME_2": "Ohio", "waterQuality": "74" }, "geometry": { "type": "Point", "coordinates": [ -82.9989013671875, 39.96136474609375 ] } },
{ "type": "Feature", "properties": { "name": "Dayton", "STATE": "OH", "NAME_2": "Ohio", "waterQuality": "70" }, "geometry": { "type": "Point", "coordinates": [ -84.191268920898438, 39.759151458740234 ] } },
{ "type": "Feature", "properties": { "name": "Hamilton", "STATE": "OH", "NAME_2": "Ohio", "waterQuality": "47" }, "geometry": { "type": "Point", "coordinates": [ -84.560981750488281, 39.399497985839844 ] } },
{ "type": "Feature", "properties": { "name": "Toledo", "STATE": "OH", "NAME_2": "Ohio", "waterQuality": "28" }, "geometry": { "type": "Point", "coordinates": [ -83.554977416992188, 41.664115905761719 ] } },
{ "type": "Feature", "properties": { "name": "Amarillo", "STATE": "TX", "NAME_2": "Texas", "waterQuality": "50" }, "geometry": { "type": "Point", "coordinates": [ -101.832405090332031, 35.222103118896484 ] } },
{ "type": "Feature", "properties": { "name": "Arlington", "STATE": "TX", "NAME_2": "Texas", "waterQuality": "85" }, "geometry": { "type": "Point", "coordinates": [ -97.10882568359375, 32.735904693603516 ] } },
{ "type": "Feature", "properties": { "name": "Austin", "STATE": "TX", "NAME_2": "Texas", "waterQuality": "57" }, "geometry": { "type": "Point", "coordinates": [ -97.743865966796875, 30.267484664916992 ] } },
{ "type": "Feature", "properties": { "name": "Brownsville", "STATE": "TX", "NAME_2": "Texas", "waterQuality": "20" }, "geometry": { "type": "Point", "coordinates": [ -97.497795104980469, 25.902280807495117 ] } },
{ "type": "Feature", "properties": { "name": "College Station", "STATE": "TX", "NAME_2": "Texas", "waterQuality": "61" }, "geometry": { "type": "Point", "coordinates": [ -96.33758544921875, 30.6231689453125 ] } },
{ "type": "Feature", "properties": { "name": "Corpus Christi", "STATE": "TX", "NAME_2": "Texas", "waterQuality": "33" }, "geometry": { "type": "Point", "coordinates": [ -97.420768737792969, 27.778598785400391 ] } },
{ "type": "Feature", "properties": { "name": "Dallas", "STATE": "TX", "NAME_2": "Texas", "waterQuality": "56" }, "geometry": { "type": "Point", "coordinates": [ -96.800880432128906, 32.783699035644531 ] } },
{ "type": "Feature", "properties": { "name": "Denton", "STATE": "TX", "NAME_2": "Texas", "waterQuality": "50" }, "geometry": { "type": "Point", "coordinates": [ -97.133499145507813, 33.21514892578125 ] } },
{ "type": "Feature", "properties": { "name": "El Paso", "STATE": "TX", "NAME_2": "Texas", "waterQuality": "53" }, "geometry": { "type": "Point", "coordinates": [ -106.462051391601563, 31.783884048461914 ] } },
{ "type": "Feature", "properties": { "name": "Fort Worth", "STATE": "TX", "NAME_2": "Texas", "waterQuality": "49" }, "geometry": { "type": "Point", "coordinates": [ -97.321357727050781, 32.725620269775391 ] } },
{ "type": "Feature", "properties": { "name": "Frisco", "STATE": "TX", "NAME_2": "Texas", "waterQuality": "100" }, "geometry": { "type": "Point", "coordinates": [ -96.8243408203125, 33.150985717773438 ] } },
{ "type": "Feature", "properties": { "name": "Galveston", "STATE": "TX", "NAME_2": "Texas", "waterQuality": "50" }, "geometry": { "type": "Point", "coordinates": [ -94.795761108398438, 29.300701141357422 ] } },
{ "type": "Feature", "properties": { "name": "Houston", "STATE": "TX", "NAME_2": "Texas", "waterQuality": "44" }, "geometry": { "type": "Point", "coordinates": [ -95.363998413085938, 29.763763427734375 ] } },
{ "type": "Feature", "properties": { "name": "Katy", "STATE": "TX", "NAME_2": "Texas", "waterQuality": "50" }, "geometry": { "type": "Point", "coordinates": [ -95.824844360351563, 29.786062240600586 ] } },
{ "type": "Feature", "properties": { "name": "Longview", "STATE": "TX", "NAME_2": "Texas", "waterQuality": "25" }, "geometry": { "type": "Point", "coordinates": [ -94.737075805664063, 32.496650695800781 ] } },
{ "type": "Feature", "properties": { "name": "Lubbock", "STATE": "TX", "NAME_2": "Texas", "waterQuality": "66" }, "geometry": { "type": "Point", "coordinates": [ -101.85443115234375, 33.596775054931641 ] } },
{ "type": "Feature", "properties": { "name": "McAllen", "STATE": "TX", "NAME_2": "Texas", "waterQuality": "80" }, "geometry": { "type": "Point", "coordinates": [ -98.23077392578125, 26.204334259033203 ] } },
{ "type": "Feature", "properties": { "name": "McKinney", "STATE": "TX", "NAME_2": "Texas", "waterQuality": "92" }, "geometry": { "type": "Point", "coordinates": [ -96.615577697753906, 33.197822570800781 ] } },
{ "type": "Feature", "properties": { "name": "New Braunfels", "STATE": "TX", "NAME_2": "Texas", "waterQuality": "58" }, "geometry": { "type": "Point", "coordinates": [ -98.124862670898438, 29.703250885009766 ] } },
{ "type": "Feature", "properties": { "name": "Plano", "STATE": "TX", "NAME_2": "Texas", "waterQuality": "71" }, "geometry": { "type": "Point", "coordinates": [ -96.699317932128906, 33.019939422607422 ] } },
{ "type": "Feature", "properties": { "name": "San Antonio", "STATE": "TX", "NAME_2": "Texas", "waterQuality": "54" }, "geometry": { "type": "Point", "coordinates": [ -98.493949890136719, 29.424396514892578 ] } },
{ "type": "Feature", "properties": { "name": "Texarkana", "STATE": "TX", "NAME_2": "Texas", "waterQuality": "25" }, "geometry": { "type": "Point", "coordinates": [ -94.0478515625, 33.425365447998047 ] } },
{ "type": "Feature", "properties": { "name": "Tyler", "STATE": "TX", "NAME_2": "Texas", "waterQuality": "54" }, "geometry": { "type": "Point", "coordinates": [ -95.3013916015625, 32.351764678955078 ] } },
{ "type": "Feature", "properties": { "name": "Victoria", "STATE": "TX", "NAME_2": "Texas", "waterQuality": "72" }, "geometry": { "type": "Point", "coordinates": [ -97.004096984863281, 28.80560302734375 ] } },
{ "type": "Feature", "properties": { "name": "Waco", "STATE": "TX", "NAME_2": "Texas", "waterQuality": "31" }, "geometry": { "type": "Point", "coordinates": [ -97.147048950195313, 31.549871444702148 ] } },
{ "type": "Feature", "properties": { "name": "Wichita Falls", "STATE": "TX", "NAME_2": "Texas", "waterQuality": "56" }, "geometry": { "type": "Point", "coordinates": [ -98.494033813476563, 33.913837432861328 ] } },
{ "type": "Feature", "properties": { "name": "Chattanooga", "STATE": "TN", "NAME_2": "Tennessee", "waterQuality": "38" }, "geometry": { "type": "Point", "coordinates": [ -85.305839538574219, 35.040584564208984 ] } },
{ "type": "Feature", "properties": { "name": "Clarksville", "STATE": "TN", "NAME_2": "Tennessee", "waterQuality": "100" }, "geometry": { "type": "Point", "coordinates": [ -87.359443664550781, 36.529930114746094 ] } },
{ "type": "Feature", "properties": { "name": "Cookeville", "STATE": "TN", "NAME_2": "Tennessee", "waterQuality": "50" }, "geometry": { "type": "Point", "coordinates": [ -85.501899719238281, 36.162906646728516 ] } },
{ "type": "Feature", "properties": { "name": "Jackson", "STATE": "TN", "NAME_2": "Tennessee", "waterQuality": "88" }, "geometry": { "type": "Point", "coordinates": [ -88.813972473144531, 35.614723205566406 ] } },
{ "type": "Feature", "properties": { "name": "Johnson City", "STATE": "TN", "NAME_2": "Tennessee", "waterQuality": "88" }, "geometry": { "type": "Point", "coordinates": [ -82.353080749511719, 36.313526153564453 ] } },
{ "type": "Feature", "properties": { "name": "Kingsport", "STATE": "TN", "NAME_2": "Tennessee", "waterQuality": "0" }, "geometry": { "type": "Point", "coordinates": [ -82.56182861328125, 36.548412322998047 ] } },
{ "type": "Feature", "properties": { "name": "Knoxville", "STATE": "TN", "NAME_2": "Tennessee", "waterQuality": "36" }, "geometry": { "type": "Point", "coordinates": [ -83.920677185058594, 35.960777282714844 ] } },
{ "type": "Feature", "properties": { "name": "Memphis", "STATE": "TN", "NAME_2": "Tennessee", "waterQuality": "51" }, "geometry": { "type": "Point", "coordinates": [ -90.016960144042969, 35.119419097900391 ] } },
{ "type": "Feature", "properties": { "name": "Nashville", "STATE": "TN", "NAME_2": "Tennessee", "waterQuality": "56" }, "geometry": { "type": "Point", "coordinates": [ -86.784126281738281, 36.1658935546875 ] } },
{ "type": "Feature", "properties": { "name": "Albany", "STATE": "NY", "NAME_2": "New York", "waterQuality": "73" }, "geometry": { "type": "Point", "coordinates": [ -73.755203247070313, 42.652900695800781 ] } },
{ "type": "Feature", "properties": { "name": "Binghamton", "STATE": "NY", "NAME_2": "New York", "waterQuality": "33" }, "geometry": { "type": "Point", "coordinates": [ -75.917556762695313, 42.098655700683594 ] } },
{ "type": "Feature", "properties": { "name": "Buffalo", "STATE": "NY", "NAME_2": "New York", "waterQuality": "63" }, "geometry": { "type": "Point", "coordinates": [ -78.877876281738281, 42.886783599853516 ] } },
{ "type": "Feature", "properties": { "name": "Ithaca", "STATE": "NY", "NAME_2": "New York", "waterQuality": "59" }, "geometry": { "type": "Point", "coordinates": [ -76.495750427246094, 42.440757751464844 ] } },
{ "type": "Feature", "properties": { "name": "Kingston", "STATE": "NY", "NAME_2": "New York", "waterQuality": "81" }, "geometry": { "type": "Point", "coordinates": [ -73.996658325195313, 41.927146911621094 ] } },
{ "type": "Feature", "properties": { "name": "New York", "STATE": "NY", "NAME_2": "New York", "waterQuality": "53" }, "geometry": { "type": "Point", "coordinates": [ -74.005287170410156, 40.714519500732422 ] } },
{ "type": "Feature", "properties": { "name": "Poughkeepsie", "STATE": "NY", "NAME_2": "New York", "waterQuality": "88" }, "geometry": { "type": "Point", "coordinates": [ -73.920341491699219, 41.700557708740234 ] } },
{ "type": "Feature", "properties": { "name": "Rochester", "STATE": "NY", "NAME_2": "New York", "waterQuality": "52" }, "geometry": { "type": "Point", "coordinates": [ -77.615226745605469, 43.154876708984375 ] } },
{ "type": "Feature", "properties": { "name": "Syracuse", "STATE": "NY", "NAME_2": "New York", "waterQuality": "59" }, "geometry": { "type": "Point", "coordinates": [ -76.146530151367188, 43.0484619140625 ] } },
{ "type": "Feature", "properties": { "name": "Utica", "STATE": "NY", "NAME_2": "New York", "waterQuality": "50" }, "geometry": { "type": "Point", "coordinates": [ -75.232200622558594, 43.1011962890625 ] } },
{ "type": "Feature", "properties": { "name": "Portland", "STATE": "ME", "NAME_2": "Maine", "waterQuality": "57" }, "geometry": { "type": "Point", "coordinates": [ -70.254035949707031, 43.661857604980469 ] } },
{ "type": "Feature", "properties": { "name": "Ann Arbor", "STATE": "MI", "NAME_2": "Michigan", "waterQuality": "52" }, "geometry": { "type": "Point", "coordinates": [ -83.745368957519531, 42.283470153808594 ] } },
{ "type": "Feature", "properties": { "name": "Detroit", "STATE": "MI", "NAME_2": "Michigan", "waterQuality": "55" }, "geometry": { "type": "Point", "coordinates": [ -83.045677185058594, 42.331722259521484 ] } },
{ "type": "Feature", "properties": { "name": "Flint", "STATE": "MI", "NAME_2": "Michigan", "waterQuality": "16" }, "geometry": { "type": "Point", "coordinates": [ -83.687446594238281, 43.012466430664063 ] } },
{ "type": "Feature", "properties": { "name": "Grand Rapids", "STATE": "MI", "NAME_2": "Michigan", "waterQuality": "67" }, "geometry": { "type": "Point", "coordinates": [ -85.667976379394531, 42.963172912597656 ] } },
{ "type": "Feature", "properties": { "name": "Kalamazoo", "STATE": "MI", "NAME_2": "Michigan", "waterQuality": "50" }, "geometry": { "type": "Point", "coordinates": [ -85.587257385253906, 42.291797637939453 ] } },
{ "type": "Feature", "properties": { "name": "Lansing", "STATE": "MI", "NAME_2": "Michigan", "waterQuality": "63" }, "geometry": { "type": "Point", "coordinates": [ -84.555320739746094, 42.732658386230469 ] } },
{ "type": "Feature", "properties": { "name": "Midland", "STATE": "MI", "NAME_2": "Michigan", "waterQuality": "63" }, "geometry": { "type": "Point", "coordinates": [ -84.24700927734375, 43.615852355957031 ] } },
{ "type": "Feature", "properties": { "name": "Plymouth", "STATE": "MI", "NAME_2": "Michigan", "waterQuality": "81" }, "geometry": { "type": "Point", "coordinates": [ -83.469856262207031, 42.371414184570313 ] } },
{ "type": "Feature", "properties": { "name": "Saginaw", "STATE": "MI", "NAME_2": "Michigan", "waterQuality": "31" }, "geometry": { "type": "Point", "coordinates": [ -83.950767517089844, 43.419689178466797 ] } },
{ "type": "Feature", "properties": { "name": "Billings", "STATE": "MT", "NAME_2": "Montana", "waterQuality": "56" }, "geometry": { "type": "Point", "coordinates": [ -108.504631042480469, 45.783378601074219 ] } },
{ "type": "Feature", "properties": { "name": "Bozeman", "STATE": "MT", "NAME_2": "Montana", "waterQuality": "97" }, "geometry": { "type": "Point", "coordinates": [ -111.047164916992188, 45.680309295654297 ] } },
{ "type": "Feature", "properties": { "name": "Butte", "STATE": "MT", "NAME_2": "Montana", "waterQuality": "44" }, "geometry": { "type": "Point", "coordinates": [ -112.54071044921875, 46.003757476806641 ] } },
{ "type": "Feature", "properties": { "name": "Helena", "STATE": "MT", "NAME_2": "Montana", "waterQuality": "50" }, "geometry": { "type": "Point", "coordinates": [ -112.037452697753906, 46.592693328857422 ] } },
{ "type": "Feature", "properties": { "name": "Kalispell", "STATE": "MT", "NAME_2": "Montana", "waterQuality": "100" }, "geometry": { "type": "Point", "coordinates": [ -114.316619873046875, 48.201614379882813 ] } },
{ "type": "Feature", "properties": { "name": "Missoula", "STATE": "MT", "NAME_2": "Montana", "waterQuality": "82" }, "geometry": { "type": "Point", "coordinates": [ -113.983268737792969, 46.872783660888672 ] } },
{ "type": "Feature", "properties": { "name": "Bloomington", "STATE": "IN", "NAME_2": "Indiana", "waterQuality": "45" }, "geometry": { "type": "Point", "coordinates": [ -86.533828735351563, 39.169204711914063 ] } },
{ "type": "Feature", "properties": { "name": "Elkhart", "STATE": "IN", "NAME_2": "Indiana", "waterQuality": "50" }, "geometry": { "type": "Point", "coordinates": [ -85.976890563964844, 41.682121276855469 ] } },
{ "type": "Feature", "properties": { "name": "Evansville", "STATE": "IN", "NAME_2": "Indiana", "waterQuality": "50" }, "geometry": { "type": "Point", "coordinates": [ -87.568504333496094, 37.977954864501953 ] } },
{ "type": "Feature", "properties": { "name": "Fort Wayne", "STATE": "IN", "NAME_2": "Indiana", "waterQuality": "57" }, "geometry": { "type": "Point", "coordinates": [ -85.139678955078125, 41.072780609130859 ] } },
{ "type": "Feature", "properties": { "name": "Indianapolis", "STATE": "IN", "NAME_2": "Indiana", "waterQuality": "49" }, "geometry": { "type": "Point", "coordinates": [ -86.158287048339844, 39.768447875976563 ] } },
{ "type": "Feature", "properties": { "name": "Kokomo", "STATE": "IN", "NAME_2": "Indiana", "waterQuality": "75" }, "geometry": { "type": "Point", "coordinates": [ -86.127067565917969, 40.485668182373047 ] } },
{ "type": "Feature", "properties": { "name": "Lafayette", "STATE": "IN", "NAME_2": "Indiana", "waterQuality": "44" }, "geometry": { "type": "Point", "coordinates": [ -86.884063720703125, 40.420772552490234 ] } },
{ "type": "Feature", "properties": { "name": "South Bend", "STATE": "IN", "NAME_2": "Indiana", "waterQuality": "88" }, "geometry": { "type": "Point", "coordinates": [ -86.251716613769531, 41.672958374023438 ] } },
{ "type": "Feature", "properties": { "name": "Terre Haute", "STATE": "IN", "NAME_2": "Indiana", "waterQuality": "75" }, "geometry": { "type": "Point", "coordinates": [ -87.414146423339844, 39.466819763183594 ] } },
{ "type": "Feature", "properties": { "name": "Valparaiso", "STATE": "IN", "NAME_2": "Indiana", "waterQuality": "61" }, "geometry": { "type": "Point", "coordinates": [ -87.058380126953125, 41.468135833740234 ] } },
{ "type": "Feature", "properties": { "name": "Boston", "STATE": "MA", "NAME_2": "Massachusetts", "waterQuality": "67" }, "geometry": { "type": "Point", "coordinates": [ -71.059051513671875, 42.358837127685547 ] } },
{ "type": "Feature", "properties": { "name": "Cambridge", "STATE": "MA", "NAME_2": "Massachusetts", "waterQuality": "68" }, "geometry": { "type": "Point", "coordinates": [ -71.10369873046875, 42.365325927734375 ] } },
{ "type": "Feature", "properties": { "name": "Northampton", "STATE": "MA", "NAME_2": "Massachusetts", "waterQuality": "71" }, "geometry": { "type": "Point", "coordinates": [ -72.640121459960938, 42.325447082519531 ] } },
{ "type": "Feature", "properties": { "name": "Pittsfield", "STATE": "MA", "NAME_2": "Massachusetts", "waterQuality": "0" }, "geometry": { "type": "Point", "coordinates": [ -73.244514465332031, 42.450042724609375 ] } },
{ "type": "Feature", "properties": { "name": "Springfield", "STATE": "MA", "NAME_2": "Massachusetts", "waterQuality": "92" }, "geometry": { "type": "Point", "coordinates": [ -72.572891235351563, 42.109806060791016 ] } },
{ "type": "Feature", "properties": { "name": "Worcester", "STATE": "MA", "NAME_2": "Massachusetts", "waterQuality": "25" }, "geometry": { "type": "Point", "coordinates": [ -71.801651000976563, 42.262889862060547 ] } },
{ "type": "Feature", "properties": { "name": "Casper", "STATE": "WY", "NAME_2": "Wyoming", "waterQuality": "50" }, "geometry": { "type": "Point", "coordinates": [ -106.314750671386719, 42.866676330566406 ] } },
{ "type": "Feature", "properties": { "name": "Cheyenne", "STATE": "WY", "NAME_2": "Wyoming", "waterQuality": "100" }, "geometry": { "type": "Point", "coordinates": [ -104.818389892578125, 41.133457183837891 ] } },
{ "type": "Feature", "properties": { "name": "Gillette", "STATE": "WY", "NAME_2": "Wyoming", "waterQuality": "50" }, "geometry": { "type": "Point", "coordinates": [ -105.503395080566406, 44.29083251953125 ] } },
{ "type": "Feature", "properties": { "name": "Laramie", "STATE": "WY", "NAME_2": "Wyoming", "waterQuality": "100" }, "geometry": { "type": "Point", "coordinates": [ -105.592803955078125, 41.311538696289063 ] } },
{ "type": "Feature", "properties": { "name": "Sheridan", "STATE": "WY", "NAME_2": "Wyoming", "waterQuality": "88" }, "geometry": { "type": "Point", "coordinates": [ -106.957977294921875, 44.797264099121094 ] } },
{ "type": "Feature", "properties": { "name": "Gulfport", "STATE": "MS", "NAME_2": "Mississippi", "waterQuality": "50" }, "geometry": { "type": "Point", "coordinates": [ -89.093696594238281, 30.372766494750977 ] } },
{ "type": "Feature", "properties": { "name": "Hattiesburg", "STATE": "MS", "NAME_2": "Mississippi", "waterQuality": "50" }, "geometry": { "type": "Point", "coordinates": [ -89.2904052734375, 31.327386856079102 ] } },
{ "type": "Feature", "properties": { "name": "Jackson", "STATE": "MS", "NAME_2": "Mississippi", "waterQuality": "81" }, "geometry": { "type": "Point", "coordinates": [ -90.196548461914063, 32.298171997070313 ] } },
{ "type": "Feature", "properties": { "name": "Tupelo", "STATE": "MS", "NAME_2": "Mississippi", "waterQuality": "75" }, "geometry": { "type": "Point", "coordinates": [ -88.719345092773438, 34.265087127685547 ] } },
{ "type": "Feature", "properties": { "name": "Boca Raton", "STATE": "FL", "NAME_2": "Florida", "waterQuality": "68" }, "geometry": { "type": "Point", "coordinates": [ -80.082801818847656, 26.359601974487305 ] } },
{ "type": "Feature", "properties": { "name": "Bradenton", "STATE": "FL", "NAME_2": "Florida", "waterQuality": "57" }, "geometry": { "type": "Point", "coordinates": [ -82.574592590332031, 27.499691009521484 ] } },
{ "type": "Feature", "properties": { "name": "Clearwater", "STATE": "FL", "NAME_2": "Florida", "waterQuality": "75" }, "geometry": { "type": "Point", "coordinates": [ -82.799842834472656, 27.966545104980469 ] } },
{ "type": "Feature", "properties": { "name": "Daytona Beach", "STATE": "FL", "NAME_2": "Florida", "waterQuality": "54" }, "geometry": { "type": "Point", "coordinates": [ -81.022537231445313, 29.211475372314453 ] } },
{ "type": "Feature", "properties": { "name": "Deerfield Beach", "STATE": "FL", "NAME_2": "Florida", "waterQuality": "71" }, "geometry": { "type": "Point", "coordinates": [ -80.099281311035156, 26.319053649902344 ] } },
{ "type": "Feature", "properties": { "name": "Fort Lauderdale", "STATE": "FL", "NAME_2": "Florida", "waterQuality": "60" }, "geometry": { "type": "Point", "coordinates": [ -80.142837524414063, 26.123090744018555 ] } },
{ "type": "Feature", "properties": { "name": "Fort Myers", "STATE": "FL", "NAME_2": "Florida", "waterQuality": "15" }, "geometry": { "type": "Point", "coordinates": [ -81.871841430664063, 26.641336441040039 ] } },
{ "type": "Feature", "properties": { "name": "Gainesville", "STATE": "FL", "NAME_2": "Florida", "waterQuality": "61" }, "geometry": { "type": "Point", "coordinates": [ -82.324623107910156, 29.652032852172852 ] } },
{ "type": "Feature", "properties": { "name": "Jacksonville", "STATE": "FL", "NAME_2": "Florida", "waterQuality": "36" }, "geometry": { "type": "Point", "coordinates": [ -81.65545654296875, 30.33253288269043 ] } },
{ "type": "Feature", "properties": { "name": "Kissimmee", "STATE": "FL", "NAME_2": "Florida", "waterQuality": "31" }, "geometry": { "type": "Point", "coordinates": [ -81.407295227050781, 28.292713165283203 ] } },
{ "type": "Feature", "properties": { "name": "Lakeland", "STATE": "FL", "NAME_2": "Florida", "waterQuality": "50" }, "geometry": { "type": "Point", "coordinates": [ -81.956207275390625, 28.04432487487793 ] } },
{ "type": "Feature", "properties": { "name": "Miami", "STATE": "FL", "NAME_2": "Florida", "waterQuality": "52" }, "geometry": { "type": "Point", "coordinates": [ -80.193290710449219, 25.774837493896484 ] } },
{ "type": "Feature", "properties": { "name": "Naples", "STATE": "FL", "NAME_2": "Florida", "waterQuality": "42" }, "geometry": { "type": "Point", "coordinates": [ -81.794342041015625, 26.142801284790039 ] } },
{ "type": "Feature", "properties": { "name": "Ocala", "STATE": "FL", "NAME_2": "Florida", "waterQuality": "68" }, "geometry": { "type": "Point", "coordinates": [ -82.139732360839844, 29.187807083129883 ] } },
{ "type": "Feature", "properties": { "name": "Orlando", "STATE": "FL", "NAME_2": "Florida", "waterQuality": "51" }, "geometry": { "type": "Point", "coordinates": [ -81.378997802734375, 28.538867950439453 ] } },
{ "type": "Feature", "properties": { "name": "Panama City", "STATE": "FL", "NAME_2": "Florida", "waterQuality": "34" }, "geometry": { "type": "Point", "coordinates": [ -85.659706115722656, 30.164129257202148 ] } },
{ "type": "Feature", "properties": { "name": "Pensacola", "STATE": "FL", "NAME_2": "Florida", "waterQuality": "41" }, "geometry": { "type": "Point", "coordinates": [ -87.216690063476563, 30.421546936035156 ] } },
{ "type": "Feature", "properties": { "name": "Saint Petersburg", "STATE": "FL", "NAME_2": "Florida", "waterQuality": "45" }, "geometry": { "type": "Point", "coordinates": [ -82.648582458496094, 27.772821426391602 ] } },
{ "type": "Feature", "properties": { "name": "Sarasota", "STATE": "FL", "NAME_2": "Florida", "waterQuality": "73" }, "geometry": { "type": "Point", "coordinates": [ -82.530311584472656, 27.336887359619141 ] } },
{ "type": "Feature", "properties": { "name": "Tallahassee", "STATE": "FL", "NAME_2": "Florida", "waterQuality": "57" }, "geometry": { "type": "Point", "coordinates": [ -84.278968811035156, 30.446699142456055 ] } },
{ "type": "Feature", "properties": { "name": "Tampa", "STATE": "FL", "NAME_2": "Florida", "waterQuality": "53" }, "geometry": { "type": "Point", "coordinates": [ -82.458030700683594, 27.948337554931641 ] } },
{ "type": "Feature", "properties": { "name": "Venice", "STATE": "FL", "NAME_2": "Florida", "waterQuality": "31" }, "geometry": { "type": "Point", "coordinates": [ -82.453880310058594, 27.100652694702148 ] } },
{ "type": "Feature", "properties": { "name": "Vero Beach", "STATE": "FL", "NAME_2": "Florida", "waterQuality": "38" }, "geometry": { "type": "Point", "coordinates": [ -80.397056579589844, 27.639081954956055 ] } },
{ "type": "Feature", "properties": { "name": "West Palm Beach", "STATE": "FL", "NAME_2": "Florida", "waterQuality": "33" }, "geometry": { "type": "Point", "coordinates": [ -80.052986145019531, 26.715854644775391 ] } },
{ "type": "Feature", "properties": { "name": "Melbourne", "STATE": "FL", "NAME_2": "Florida", "waterQuality": "71" }, "geometry": { "type": "Point", "coordinates": [ -80.606254577636719, 28.07838249206543 ] } },
{ "type": "Feature", "properties": { "name": "Hilo", "STATE": "HI", "NAME_2": "Hawaii", "waterQuality": "45" }, "geometry": { "type": "Point", "coordinates": [ -155.081588745117188, 19.720788955688477 ] } },
{ "type": "Feature", "properties": { "name": "Honolulu", "STATE": "HI", "NAME_2": "Hawaii", "waterQuality": "59" }, "geometry": { "type": "Point", "coordinates": [ -157.816574096679688, 21.311500549316406 ] } },
{ "type": "Feature", "properties": { "name": "Brainerd", "STATE": "MN", "NAME_2": "Minnesota", "waterQuality": "50" }, "geometry": { "type": "Point", "coordinates": [ -94.20135498046875, 46.357875823974609 ] } },
{ "type": "Feature", "properties": { "name": "Duluth", "STATE": "MN", "NAME_2": "Minnesota", "waterQuality": "75" }, "geometry": { "type": "Point", "coordinates": [ -92.106971740722656, 46.783008575439453 ] } },
{ "type": "Feature", "properties": { "name": "Minneapolis", "STATE": "MN", "NAME_2": "Minnesota", "waterQuality": "65" }, "geometry": { "type": "Point", "coordinates": [ -93.26397705078125, 44.979801177978516 ] } },
{ "type": "Feature", "properties": { "name": "Rochester", "STATE": "MN", "NAME_2": "Minnesota", "waterQuality": "50" }, "geometry": { "type": "Point", "coordinates": [ -92.470420837402344, 44.021564483642578 ] } },
{ "type": "Feature", "properties": { "name": "Saint Cloud", "STATE": "MN", "NAME_2": "Minnesota", "waterQuality": "13" }, "geometry": { "type": "Point", "coordinates": [ -94.163055419921875, 45.560829162597656 ] } },
{ "type": "Feature", "properties": { "name": "Saint Paul", "STATE": "MN", "NAME_2": "Minnesota", "waterQuality": "66" }, "geometry": { "type": "Point", "coordinates": [ -93.105476379394531, 44.954319000244141 ] } },
{ "type": "Feature", "properties": { "name": "Birmingham", "STATE": "AL", "NAME_2": "Alabama", "waterQuality": "75" }, "geometry": { "type": "Point", "coordinates": [ -86.802268981933594, 33.520988464355469 ] } },
{ "type": "Feature", "properties": { "name": "Dothan", "STATE": "AL", "NAME_2": "Alabama", "waterQuality": "25" }, "geometry": { "type": "Point", "coordinates": [ -85.39019775390625, 31.223512649536133 ] } },
{ "type": "Feature", "properties": { "name": "Florence", "STATE": "AL", "NAME_2": "Alabama", "waterQuality": "63" }, "geometry": { "type": "Point", "coordinates": [ -87.677268981933594, 34.799781799316406 ] } },
{ "type": "Feature", "properties": { "name": "Gadsden", "STATE": "AL", "NAME_2": "Alabama", "waterQuality": "25" }, "geometry": { "type": "Point", "coordinates": [ -86.006752014160156, 34.014575958251953 ] } },
{ "type": "Feature", "properties": { "name": "Huntsville", "STATE": "AL", "NAME_2": "Alabama", "waterQuality": "73" }, "geometry": { "type": "Point", "coordinates": [ -86.586097717285156, 34.730739593505859 ] } },
{ "type": "Feature", "properties": { "name": "Mobile", "STATE": "AL", "NAME_2": "Alabama", "waterQuality": "48" }, "geometry": { "type": "Point", "coordinates": [ -88.043098449707031, 30.694761276245117 ] } },
{ "type": "Feature", "properties": { "name": "Montgomery", "STATE": "AL", "NAME_2": "Alabama", "waterQuality": "44" }, "geometry": { "type": "Point", "coordinates": [ -86.299667358398438, 32.367244720458984 ] } },
{ "type": "Feature", "properties": { "name": "Tuscaloosa", "STATE": "AL", "NAME_2": "Alabama", "waterQuality": "60" }, "geometry": { "type": "Point", "coordinates": [ -87.568977355957031, 33.210247039794922 ] } },
{ "type": "Feature", "properties": { "name": "Columbia", "STATE": "MO", "NAME_2": "Missouri", "waterQuality": "75" }, "geometry": { "type": "Point", "coordinates": [ -92.334297180175781, 38.951690673828125 ] } },
{ "type": "Feature", "properties": { "name": "Joplin", "STATE": "MO", "NAME_2": "Missouri", "waterQuality": "81" }, "geometry": { "type": "Point", "coordinates": [ -94.514068603515625, 37.084426879882813 ] } },
{ "type": "Feature", "properties": { "name": "Kansas City", "STATE": "MO", "NAME_2": "Missouri", "waterQuality": "53" }, "geometry": { "type": "Point", "coordinates": [ -94.578849792480469, 39.099765777587891 ] } },
{ "type": "Feature", "properties": { "name": "Saint Charles", "STATE": "MO", "NAME_2": "Missouri", "waterQuality": "67" }, "geometry": { "type": "Point", "coordinates": [ -90.481407165527344, 38.783988952636719 ] } },
{ "type": "Feature", "properties": { "name": "Saint Joseph", "STATE": "MO", "NAME_2": "Missouri", "waterQuality": "0" }, "geometry": { "type": "Point", "coordinates": [ -94.847175598144531, 39.768768310546875 ] } },
{ "type": "Feature", "properties": { "name": "Saint Louis", "STATE": "MO", "NAME_2": "Missouri", "waterQuality": "62" }, "geometry": { "type": "Point", "coordinates": [ -90.198196411132813, 38.627166748046875 ] } },
{ "type": "Feature", "properties": { "name": "Springfield", "STATE": "MO", "NAME_2": "Missouri", "waterQuality": "61" }, "geometry": { "type": "Point", "coordinates": [ -93.298622131347656, 37.215488433837891 ] } }
]
}
